{"type":"FeatureCollection","features":[{"geometry": {"type": "Point", "coordinates": [-71.19401561967612, 42.35968786845574]}, "type": "Feature", "id": 0, "properties": {"Active": "Y", "Precincts": "1/1", "Location": "Lincoln Eliot School", "Address": "191 Pearl St"}},{"geometry": {"type": "Point", "coordinates": [-71.18918967316714, 42.35498942160277]}, "type": "Feature", "id": 1, "properties": {"Active": "Y", "Precincts": "1/2", "Location": "Fire Station #1", "Address": "241 Church St"}},{"geometry": {"type": "Point", "coordinates": [-71.18144315446332, 42.35357903557129]}, "type": "Feature", "id": 2, "properties": {"Active": "Y", "Precincts": "1/3 7/2", "Location": "Bigelow Middle School", "Address": "42 Vernon St"}},{"geometry": {"type": "Point", "coordinates": [-71.2031562554843, 42.35861237511058]}, "type": "Feature", "id": 3, "properties": {"Active": "Y", "Precincts": "1/4", "Location": "Pellegrini Playgrnd Fieldhouse", "Address": "11 Hawthorn St"}},{"geometry": {"type": "Point", "coordinates": [-71.21354522330809, 42.35473441342998]}, "type": "Feature", "id": 4, "properties": {"Active": "Y", "Precincts": "2/1", "Location": "Horace Mann School", "Address": "687 Watertown St"}},{"geometry": {"type": "Point", "coordinates": [-71.19871788443656, 42.348989475226865]}, "type": "Feature", "id": 5, "properties": {"Active": "N", "Precincts": "2/2", "Location": "Cabot School", "Address": "229 Cabot St"}},{"geometry": {"type": "Point", "coordinates": [-71.22601961352098, 42.3507604646619]}, "type": "Feature", "id": 6, "properties": {"Active": "Y", "Precincts": "3/1 3/3", "Location": "Newton Community Svc Center", "Address": "492 Waltham Street"}},{"geometry": {"type": "Point", "coordinates": [-71.23142857735473, 42.34201251589521]}, "type": "Feature", "id": 7, "properties": {"Active": "Y", "Precincts": "3/2", "Location": "Peirce School", "Address": "170 Temple St"}},{"geometry": {"type": "Point", "coordinates": [-71.2285504744053, 42.35829600391739]}, "type": "Feature", "id": 8, "properties": {"Active": "Y", "Precincts": "3/4", "Location": "Franklin School", "Address": "125 Derby St"}},{"geometry": {"type": "Point", "coordinates": [-71.24205228208474, 42.35228891570026]}, "type": "Feature", "id": 9, "properties": {"Active": "Y", "Precincts": "4/1 4/4", "Location": "Burr School", "Address": "171 Pine St"}},{"geometry": {"type": "Point", "coordinates": [-71.25839330621383, 42.33059618915728]}, "type": "Feature", "id": 10, "properties": {"Active": "Y", "Precincts": "4/2", "Location": "Hamilton Community Center", "Address": "545 Grove St"}},{"geometry": {"type": "Point", "coordinates": [-71.221983415887, 42.31361394006611]}, "type": "Feature", "id": 11, "properties": {"Active": "Y", "Precincts": "5/1", "Location": "Emerson Community Center", "Address": "51 Pettee St"}},{"geometry": {"type": "Point", "coordinates": [-71.20967146665097, 42.32095595788571]}, "type": "Feature", "id": 12, "properties": {"Active": "Y", "Precincts": "5/2 6/3", "Location": "Hyde Community Center", "Address": "90 Lincoln St"}},{"geometry": {"type": "Point", "coordinates": [-71.21771646631895, 42.32968187860536]}, "type": "Feature", "id": 13, "properties": {"Active": "N", "Precincts": "5/3 5/4", "Location": "Zervas School", "Address": "30 Beethoven Ave"}},{"geometry": {"type": "Point", "coordinates": [-71.19929978305134, 42.332606082652354]}, "type": "Feature", "id": 14, "properties": {"Active": "Y", "Precincts": "6/4", "Location": "Mason Rice School", "Address": "149 Pleasant St"}},{"geometry": {"type": "Point", "coordinates": [-71.1974377179367, 42.32360380114838]}, "type": "Feature", "id": 15, "properties": {"Active": "Y", "Precincts": "6/2", "Location": "Weeks House", "Address": "7 Hereward Rd"}},{"geometry": {"type": "Point", "coordinates": [-71.17860178662148, 42.34040265689962]}, "type": "Feature", "id": 16, "properties": {"Active": "Y", "Precincts": "7/3 7/4", "Location": "Ward School", "Address": "10 Dolphin Rd"}},{"geometry": {"type": "Point", "coordinates": [-71.20241715142144, 42.313101491597635]}, "type": "Feature", "id": 17, "properties": {"Active": "Y", "Precincts": "8/3", "Location": "Countryside School", "Address": "191 Dedham St"}},{"geometry": {"type": "Point", "coordinates": [-71.18742465669199, 42.321248929784616]}, "type": "Feature", "id": 18, "properties": {"Active": "Y", "Precincts": "6/1", "Location": "Bowen School", "Address": "280 Cypress St"}},{"geometry": {"type": "Point", "coordinates": [-71.19150393949397, 42.3100409047764]}, "type": "Feature", "id": 19, "properties": {"Active": "Y", "Precincts": "8/1", "Location": "Oak Hill School", "Address": "130 Wheeler Rd"}},{"geometry": {"type": "Point", "coordinates": [-71.24951242719, 42.342299611589475]}, "type": "Feature", "id": 20, "properties": {"Active": "Y", "Precincts": "4/3", "Location": "Williams School", "Address": "141 Grove St"}},{"geometry": {"type": "Point", "coordinates": [-71.17761806988504, 42.30211924655595]}, "type": "Feature", "id": 21, "properties": {"Active": "Y", "Precincts": "8/2", "Location": "Memorial-Spaulding School", "Address": "250 Brookline St"}},{"geometry": {"type": "Point", "coordinates": [-71.1862951388879, 42.291099665105406]}, "type": "Feature", "id": 22, "properties": {"Active": "Y", "Precincts": "8/4", "Location": "Shuman Community Center", "Address": "675 Saw Mill Brook Pkwy"}},{"geometry": {"type": "Point", "coordinates": [-71.20784054197135, 42.33586637548817]}, "type": "Feature", "id": 23, "properties": {"Active": "Y", "Precincts": "2/4", "Location": "Newton Free Library", "Address": "330 Homer St"}},{"geometry": {"type": "Point", "coordinates": [-71.20715942974752, 42.349161749679084]}, "type": "Feature", "id": 24, "properties": {"Active": "Y", "Precincts": "2/3", "Location": "Newton Senior Center", "Address": "345 Walnut St"}},{"geometry": {"type": "Point", "coordinates": [-71.16836624643051, 42.32936565143249]}, "type": "Feature", "id": 25, "properties": {"Active": "Y", "Precincts": "7/1", "Location": "Church of the Redeemer", "Address": "379 Hammond St"}},{"geometry": {"type": "Point", "coordinates": [-71.22942543782852, 42.327091983210735]}, "type": "Feature", "id": 26, "properties": {"Active": "Y", "Precincts": "5/3 5/4", "Location": "Waban Library", "Address": "1608 Beacon St"}},{"geometry": {"type": "Point", "coordinates": [-71.19803490128919, 42.35102281597677]}, "type": "Feature", "id": 27, "properties": {"Active": "Y", "Precincts": "2/2", "Location": "Cabot Park Village", "Address": "280 Newtonville Ave"}}]}