{
"type": "FeatureCollection",
"name": "PollingLocations",
"crs": { "type": "name", "properties": { "name": "urn:ogc:def:crs:OGC:1.3:CRS84" } },
"features": [
{ "type": "Feature", "properties": { "OBJECTID": 1, "Location": "Horace Mann School", "Address": "191 Pearl St", "Precincts": "1-1", "Active": "Y", "Precinct": "1-1", "Display": 1, "GlobalID": "{5C9D7A2A-1E2D-4C77-8865-8A73E1133332}" }, "geometry": { "type": "Point", "coordinates": [ -71.194016368094665, 42.359687564410386 ] } },
{ "type": "Feature", "properties": { "OBJECTID": 2, "Location": "Grace Episcopal Church", "Address": "76 Eldredge St", "Precincts": "1-2", "Active": "Y", "Precinct": "1-2", "Display": 1, "GlobalID": "{177A8569-B270-4972-BE0F-37B6C95780D4}" }, "geometry": { "type": "Point", "coordinates": [ -71.183561078536371, 42.353187851319085 ] } },
{ "type": "Feature", "properties": { "OBJECTID": 3, "Location": "Bigelow Middle School", "Address": "42 Vernon St", "Precincts": "1-3 7-2", "Active": "Y", "Precinct": "1-3", "Display": 1, "GlobalID": "{9742FF9A-270E-400B-9679-032C72885124}" }, "geometry": { "type": "Point", "coordinates": [ -71.181443888416126, 42.353578716691189 ] } },
{ "type": "Feature", "properties": { "OBJECTID": 4, "Location": "Pellegrini Playgrnd Fieldhouse", "Address": "11 Hawthorn St", "Precincts": "1-4", "Active": "Y", "Precinct": "1-4", "Display": 1, "GlobalID": "{1B9F8829-9C5B-4F20-AB33-B6A84CC0EE42}" }, "geometry": { "type": "Point", "coordinates": [ -71.203157026838824, 42.35861208320275 ] } },
{ "type": "Feature", "properties": { "OBJECTID": 5, "Location": "Albemarle Fieldhouse", "Address": "250 Albemarle St", "Precincts": "2-1", "Active": "N", "Precinct": "2-1", "Display": 0, "GlobalID": "{D1641D81-7444-4898-AF6B-C2A0E5DF00DC}" }, "geometry": { "type": "Point", "coordinates": [ -71.216049458592238, 42.357941763191704 ] } },
{ "type": "Feature", "properties": { "OBJECTID": 6, "Location": "Cabot School", "Address": "229 Cabot St", "Precincts": "2-2 2-3", "Active": "Y", "Precinct": "2-2", "Display": 1, "GlobalID": "{74F218EB-03C7-4987-AA22-1D010B7C8126}" }, "geometry": { "type": "Point", "coordinates": [ -71.198718667511912, 42.3489891800834 ] } },
{ "type": "Feature", "properties": { "OBJECTID": 7, "Location": "Newton Community Svc Center", "Address": "492 Waltham Street", "Precincts": "3-1 3-3", "Active": "N", "Precinct": "3-1", "Display": 0, "GlobalID": "{01C22C7C-FEBA-4141-AFC1-FF2313A75A80}" }, "geometry": { "type": "Point", "coordinates": [ -71.226020453910422, 42.350760204767191 ] } },
{ "type": "Feature", "properties": { "OBJECTID": 8, "Location": "Peirce School", "Address": "170 Temple St", "Precincts": "3-2", "Active": "N", "Precinct": "3-2", "Display": 0, "GlobalID": "{5ABDD5F2-188E-450A-B1D8-BD064DCDE89D}" }, "geometry": { "type": "Point", "coordinates": [ -71.23142944964431, 42.34201226574833 ] } },
{ "type": "Feature", "properties": { "OBJECTID": 9, "Location": "Franklin School", "Address": "125 Derby St", "Precincts": "3-3 3-4", "Active": "Y", "Precinct": "3-4", "Display": 1, "GlobalID": "{3BC8FB7B-FAFE-47FF-8C3A-4029AB2AC208}" }, "geometry": { "type": "Point", "coordinates": [ -71.228551303464215, 42.358295745059898 ] } },
{ "type": "Feature", "properties": { "OBJECTID": 10, "Location": "Burr School", "Address": "171 Pine St", "Precincts": "4-1 4-4", "Active": "Y", "Precinct": "4-1", "Display": 1, "GlobalID": "{A6896C77-29EF-4A6E-B310-55A01B8D880B}" }, "geometry": { "type": "Point", "coordinates": [ -71.242053155020457, 42.352288676289447 ] } },
{ "type": "Feature", "properties": { "OBJECTID": 11, "Location": "Hamilton Community Center", "Address": "545 Grove St", "Precincts": "4-2", "Active": "Y", "Precinct": "4-2", "Display": 1, "GlobalID": "{05F27211-2766-4518-A9E2-E596C12B944F}" }, "geometry": { "type": "Point", "coordinates": [ -71.258394234616858, 42.330595971673745 ] } },
{ "type": "Feature", "properties": { "OBJECTID": 12, "Location": "Emerson Community Center", "Address": "51 Pettee St", "Precincts": "5-1", "Active": "Y", "Precinct": "5-1", "Display": 1, "GlobalID": "{2B6D220B-611F-4D90-9966-D76F321977F6}" }, "geometry": { "type": "Point", "coordinates": [ -71.221984331043217, 42.313613685776268 ] } },
{ "type": "Feature", "properties": { "OBJECTID": 13, "Location": "Hyde Community Center", "Address": "90 Lincoln St", "Precincts": "5-2 6-3", "Active": "Y", "Precinct": "5-2", "Display": 1, "GlobalID": "{50FCBB1E-408F-45B4-99B4-2DDCD1854150}" }, "geometry": { "type": "Point", "coordinates": [ -71.209672337535437, 42.320955684854916 ] } },
{ "type": "Feature", "properties": { "OBJECTID": 14, "Location": "Zervas School", "Address": "30 Beethoven Ave", "Precincts": "5-3 5-4", "Active": "Y", "Precinct": "5-3", "Display": 1, "GlobalID": "{C20F6E54-076A-4719-BB3E-9E64C3129A52}" }, "geometry": { "type": "Point", "coordinates": [ -71.217604774377321, 42.329783304012274 ] } },
{ "type": "Feature", "properties": { "OBJECTID": 15, "Location": "Mason Rice School", "Address": "149 Pleasant St", "Precincts": "6-4", "Active": "Y", "Precinct": "6-4", "Display": 1, "GlobalID": "{6F4785FA-27CD-4BD1-B867-9BC0026EF2C3}" }, "geometry": { "type": "Point", "coordinates": [ -71.199300604348608, 42.332605792581496 ] } },
{ "type": "Feature", "properties": { "OBJECTID": 16, "Location": "Weeks House", "Address": "7 Hereward Rd", "Precincts": "6-2", "Active": "N", "Precinct": "6-2", "Display": 0, "GlobalID": "{D6B30AE7-62A3-4187-8619-F54471DC7748}" }, "geometry": { "type": "Point", "coordinates": [ -71.19743855532893, 42.3236035109433 ] } },
{ "type": "Feature", "properties": { "OBJECTID": 17, "Location": "Ward School", "Address": "10 Dolphin Rd", "Precincts": "7-3 7-4", "Active": "Y", "Precinct": "7-3", "Display": 1, "GlobalID": "{45DF4CD9-B7E2-427F-A535-B995BE4EFF68}" }, "geometry": { "type": "Point", "coordinates": [ -71.178602543842089, 42.34040233741969 ] } },
{ "type": "Feature", "properties": { "OBJECTID": 18, "Location": "Countryside School", "Address": "191 Dedham St", "Precincts": "8-3", "Active": "Y", "Precinct": "8-3", "Display": 1, "GlobalID": "{6FE130AA-1FE6-4CA3-B6D7-F36A3537FB42}" }, "geometry": { "type": "Point", "coordinates": [ -71.202418023684672, 42.313101210890757 ] } },
{ "type": "Feature", "properties": { "OBJECTID": 19, "Location": "Bowen School", "Address": "280 Cypress St", "Precincts": "6-1 6-2", "Active": "Y", "Precinct": "6-1", "Display": 1, "GlobalID": "{C4BFA304-A2FE-4029-9F23-5260D20CA406}" }, "geometry": { "type": "Point", "coordinates": [ -71.1874254768599, 42.321248626705128 ] } },
{ "type": "Feature", "properties": { "OBJECTID": 20, "Location": "Oak Hill School", "Address": "130 Wheeler Rd", "Precincts": "8-1", "Active": "Y", "Precinct": "8-1", "Display": 1, "GlobalID": "{EB0CEB99-4856-492C-A438-74E92FA2124C}" }, "geometry": { "type": "Point", "coordinates": [ -71.191504794080757, 42.310040610025162 ] } },
{ "type": "Feature", "properties": { "OBJECTID": 21, "Location": "Williams School", "Address": "141 Grove St", "Precincts": "4-3", "Active": "Y", "Precinct": "4-3", "Display": 1, "GlobalID": "{6D854595-6F56-4859-918F-B91629F06932}" }, "geometry": { "type": "Point", "coordinates": [ -71.249513339461188, 42.342299385212272 ] } },
{ "type": "Feature", "properties": { "OBJECTID": 22, "Location": "Memorial-Spaulding School", "Address": "250 Brookline St", "Precincts": "8/2", "Active": "N", "Precinct": "8/2", "Display": 0, "GlobalID": "{80BB94BA-D304-4DE1-99AF-98487D6E7A5F}" }, "geometry": { "type": "Point", "coordinates": [ -71.177618911026414, 42.30211893475154 ] } },
{ "type": "Feature", "properties": { "OBJECTID": 23, "Location": "Shuman Community Center", "Address": "675 Saw Mill Brook Pkwy", "Precincts": "8-4", "Active": "Y", "Precinct": "8-4", "Display": 1, "GlobalID": "{11B965C6-C7DA-4765-97EA-C245CF16B2D5}" }, "geometry": { "type": "Point", "coordinates": [ -71.186296024385825, 42.291099367918399 ] } },
{ "type": "Feature", "properties": { "OBJECTID": 24, "Location": "Newton Free Library", "Address": "330 Homer St", "Precincts": "2-4", "Active": "Y", "Precinct": "2-4", "Display": 1, "GlobalID": "{D0D2C21E-C983-4F71-8FCC-F212A5CB2941}" }, "geometry": { "type": "Point", "coordinates": [ -71.207841375120054, 42.335866095899654 ] } },
{ "type": "Feature", "properties": { "OBJECTID": 25, "Location": "Newton Senior Center", "Address": "345 Walnut St", "Precincts": "2-3", "Active": "N", "Precinct": "2-3", "Display": 0, "GlobalID": "{76BFE7DE-545D-4E12-9FB3-609662BBE614}" }, "geometry": { "type": "Point", "coordinates": [ -71.207160231391782, 42.349161465550594 ] } },
{ "type": "Feature", "properties": { "OBJECTID": 26, "Location": "Church of the Redeemer", "Address": "379 Hammond St", "Precincts": "7-1", "Active": "Y", "Precinct": "7-1", "Display": 1, "GlobalID": "{82229134-BB5E-45BC-8E8B-98807AFEF937}" }, "geometry": { "type": "Point", "coordinates": [ -71.168367005466877, 42.329365320876455 ] } },
{ "type": "Feature", "properties": { "OBJECTID": 27, "Location": "Zervas School", "Address": "30 Beethoven Ave", "Precincts": "5-3 5-4", "Active": "Y", "Precinct": "5-4", "Display": 0, "GlobalID": "{50940220-13D9-4300-85A0-C0F8A69D4751}" }, "geometry": { "type": "Point", "coordinates": [ -71.217604774377321, 42.329783304012274 ] } },
{ "type": "Feature", "properties": { "OBJECTID": 28, "Location": "Temple Beth Avodah", "Address": "45 Puddingstone Ln", "Precincts": "8-2", "Active": "Y", "Precinct": "8-2", "Display": 1, "GlobalID": "{D7F34ACE-450B-49A7-97B4-2FEA55FF6D9A}" }, "geometry": { "type": "Point", "coordinates": [ -71.175793451232224, 42.298912337045614 ] } },
{ "type": "Feature", "properties": { "OBJECTID": 29, "Location": "Burr School", "Address": "171 Pine St", "Precincts": "4-1 4-4", "Active": "Y", "Precinct": "4-4", "Display": 0, "GlobalID": "{523E4A7C-7E6E-4F5F-B404-66E7C55D3F2E}" }, "geometry": { "type": "Point", "coordinates": [ -71.242053155020457, 42.352288676289447 ] } },
{ "type": "Feature", "properties": { "OBJECTID": 30, "Location": "Hyde Community Center", "Address": "90 Lincoln St", "Precincts": "5-2 6-3", "Active": "Y", "Precinct": "6-3", "Display": 0, "GlobalID": "{BC741C22-1F51-486B-971D-B8693E2508A5}" }, "geometry": { "type": "Point", "coordinates": [ -71.209672337535437, 42.320955684854916 ] } },
{ "type": "Feature", "properties": { "OBJECTID": 31, "Location": "Bigelow Middle School", "Address": "42 Vernon St", "Precincts": "1-3 7-2", "Active": "Y", "Precinct": "7-2", "Display": 0, "GlobalID": "{E3F3CA93-DAF8-477B-8E09-F9F9CE56292F}" }, "geometry": { "type": "Point", "coordinates": [ -71.181443888416126, 42.353578716691189 ] } },
{ "type": "Feature", "properties": { "OBJECTID": 32, "Location": "Ward School", "Address": "10 Dolphin Rd", "Precincts": "7-3 7-4", "Active": "Y", "Precinct": "7-4", "Display": 0, "GlobalID": "{3E76D324-DABB-4DE3-A310-FD9972A87B99}" }, "geometry": { "type": "Point", "coordinates": [ -71.178602543842089, 42.34040233741969 ] } },
{ "type": "Feature", "properties": { "OBJECTID": 33, "Location": "Old Horace Mann School", "Address": "687 Watertown St", "Precincts": "3/1", "Active": "N", "Precinct": "3-1", "Display": 0, "GlobalID": "{5DC719AE-4D03-4489-849E-D04D6A045BCB}" }, "geometry": { "type": "Point", "coordinates": [ -71.213585248662369, 42.354804537028237 ] } },
{ "type": "Feature", "properties": { "OBJECTID": 34, "Location": "Franklin School", "Address": "125 Derby St", "Precincts": "3-3 3-4", "Active": "Y", "Precinct": "3-3", "Display": 0, "GlobalID": "{ABF8B17E-7EC5-4779-AB8E-DCA42EEE9AC4}" }, "geometry": { "type": "Point", "coordinates": [ -71.228551303464215, 42.358295745059898 ] } },
{ "type": "Feature", "properties": { "OBJECTID": 35, "Location": "Bowen School", "Address": "280 Cypress St", "Precincts": "6-1 6-2", "Active": "Y", "Precinct": "6-2", "Display": 0, "GlobalID": "{546AC86E-3DD8-4A14-A421-07E7EF458B80}" }, "geometry": { "type": "Point", "coordinates": [ -71.1874254768599, 42.321248626705128 ] } },
{ "type": "Feature", "properties": { "OBJECTID": 36, "Location": "Scandinavian Living Center", "Address": "206 Waltham St", "Precincts": "2-1 3-1", "Active": "Y", "Precinct": "3-1", "Display": 0, "GlobalID": "{23189738-8984-4413-B552-69F622553792}" }, "geometry": { "type": "Point", "coordinates": [ -71.221404649835577, 42.359838721501063 ] } },
{ "type": "Feature", "properties": { "OBJECTID": 37, "Location": "Temple Shalom", "Address": "175 Temple St", "Precincts": "3-2", "Active": "N", "Precinct": "3-2", "Display": 1, "GlobalID": "{BD0C9DB6-03FD-411D-BF2D-BC522EB7896D}" }, "geometry": { "type": "Point", "coordinates": [ -71.232694442735152, 42.342331184201782 ] } },
{ "type": "Feature", "properties": { "OBJECTID": 38, "Location": "Cabot School", "Address": "229 Cabot St", "Precincts": "2-2 2-3", "Active": "Y", "Precinct": "2-3", "Display": 0, "GlobalID": "{CEA611DA-FF07-45A6-B98C-A552904A155B}" }, "geometry": { "type": "Point", "coordinates": [ -71.198718667511912, 42.3489891800834 ] } },
{ "type": "Feature", "properties": { "OBJECTID": 39, "Location": "Scandinavian Living Center", "Address": "206 Waltham St", "Precincts": "2-1 3-1", "Active": "Y", "Precinct": "2-1", "Display": 1, "GlobalID": "{2CF85C9A-68C6-4531-ACC6-E9BC0F0452B3}" }, "geometry": { "type": "Point", "coordinates": [ -71.221404649835577, 42.359838721501063 ] } },
{ "type": "Feature", "properties": { "OBJECTID": 40, "Location": "Warren House", "Address": "1600 Washington St", "Precincts": "3-2", "Active": "Y", "Precinct": "3-2", "Display": 0, "GlobalID": "{3820B005-BE58-42F9-962D-928B65A63E45}" }, "geometry": { "type": "Point", "coordinates": [ -71.235433486850525, 42.343216839407638 ] } }
]
}
