{
"type": "FeatureCollection",
"name": "PollingLocations",
"crs": { "type": "name", "properties": { "name": "urn:ogc:def:crs:OGC:1.3:CRS84" } },
"features": [
{ "type": "Feature", "properties": { "Location": "Lincoln Eliot School", "Address": "191 Pearl St", "Precincts": "1-1", "Active": "Y", "Precinct": "1-1" }, "geometry": { "type": "Point", "coordinates": [ -71.194016368094665, 42.359687564410379 ] } },
{ "type": "Feature", "properties": { "Location": "Grace Episcopal Church", "Address": "76 Eldredge St", "Precincts": "1-2", "Active": "Y", "Precinct": "1-2" }, "geometry": { "type": "Point", "coordinates": [ -71.183561078536357, 42.353187851319085 ] } },
{ "type": "Feature", "properties": { "Location": "Bigelow Middle School", "Address": "42 Vernon St", "Precincts": "1-3 7-2", "Active": "Y", "Precinct": "1-3" }, "geometry": { "type": "Point", "coordinates": [ -71.181443888416126, 42.353578716691189 ] } },
{ "type": "Feature", "properties": { "Location": "Pellegrini Playgrnd Fieldhouse", "Address": "11 Hawthorn St", "Precincts": "1-4", "Active": "Y", "Precinct": "1-4" }, "geometry": { "type": "Point", "coordinates": [ -71.203157026838824, 42.35861208320275 ] } },
{ "type": "Feature", "properties": { "Location": "Cabot School", "Address": "229 Cabot St", "Precincts": "2-2 2-3", "Active": "Y", "Precinct": "2-2" }, "geometry": { "type": "Point", "coordinates": [ -71.198718667511912, 42.3489891800834 ] } },
{ "type": "Feature", "properties": { "Location": "Franklin School", "Address": "125 Derby St", "Precincts": "3-3 3-4", "Active": "Y", "Precinct": "3-4" }, "geometry": { "type": "Point", "coordinates": [ -71.228551303464215, 42.358295745059891 ] } },
{ "type": "Feature", "properties": { "Location": "Burr School", "Address": "171 Pine St", "Precincts": "4-1 4-4", "Active": "Y", "Precinct": "4-1" }, "geometry": { "type": "Point", "coordinates": [ -71.242053155020457, 42.352288676289447 ] } },
{ "type": "Feature", "properties": { "Location": "Hamilton Community Center", "Address": "545 Grove St", "Precincts": "4-2", "Active": "Y", "Precinct": "4-2" }, "geometry": { "type": "Point", "coordinates": [ -71.258394234616858, 42.330595971673738 ] } },
{ "type": "Feature", "properties": { "Location": "Emerson Community Center", "Address": "51 Pettee St", "Precincts": "5-1", "Active": "Y", "Precinct": "5-1" }, "geometry": { "type": "Point", "coordinates": [ -71.221984331043217, 42.313613685776261 ] } },
{ "type": "Feature", "properties": { "Location": "Hyde Community Center", "Address": "90 Lincoln St", "Precincts": "5-2 6-3", "Active": "Y", "Precinct": "5-2" }, "geometry": { "type": "Point", "coordinates": [ -71.209672337535437, 42.320955684854916 ] } },
{ "type": "Feature", "properties": { "Location": "Zervas School", "Address": "30 Beethoven Ave", "Precincts": "5-3 5-4", "Active": "Y", "Precinct": "5-3" }, "geometry": { "type": "Point", "coordinates": [ -71.217604774377321, 42.329783304012274 ] } },
{ "type": "Feature", "properties": { "Location": "Mason Rice School", "Address": "149 Pleasant St", "Precincts": "6-4", "Active": "Y", "Precinct": "6-4" }, "geometry": { "type": "Point", "coordinates": [ -71.199300604348608, 42.332605792581496 ] } },
{ "type": "Feature", "properties": { "Location": "Ward School", "Address": "10 Dolphin Rd", "Precincts": "7-3 7-4", "Active": "Y", "Precinct": "7-3" }, "geometry": { "type": "Point", "coordinates": [ -71.178602543842089, 42.34040233741969 ] } },
{ "type": "Feature", "properties": { "Location": "Countryside School", "Address": "191 Dedham St", "Precincts": "8-3", "Active": "Y", "Precinct": "8-3" }, "geometry": { "type": "Point", "coordinates": [ -71.202418023684672, 42.313101210890757 ] } },
{ "type": "Feature", "properties": { "Location": "Bowen School", "Address": "280 Cypress St", "Precincts": "6-1 6-2", "Active": "Y", "Precinct": "6-1" }, "geometry": { "type": "Point", "coordinates": [ -71.1874254768599, 42.321248626705128 ] } },
{ "type": "Feature", "properties": { "Location": "Oak Hill School", "Address": "130 Wheeler Rd", "Precincts": "8-1", "Active": "Y", "Precinct": "8-1" }, "geometry": { "type": "Point", "coordinates": [ -71.191504794080757, 42.310040610025162 ] } },
{ "type": "Feature", "properties": { "Location": "Williams School", "Address": "141 Grove St", "Precincts": "4-3", "Active": "Y", "Precinct": "4-3" }, "geometry": { "type": "Point", "coordinates": [ -71.249513339461188, 42.342299385212272 ] } },
{ "type": "Feature", "properties": { "Location": "Shuman Community Center", "Address": "675 Saw Mill Brook Pkwy", "Precincts": "8-4", "Active": "Y", "Precinct": "8-4" }, "geometry": { "type": "Point", "coordinates": [ -71.186296024385825, 42.291099367918392 ] } },
{ "type": "Feature", "properties": { "Location": "Newton Free Library", "Address": "330 Homer St", "Precincts": "2-4", "Active": "Y", "Precinct": "2-4" }, "geometry": { "type": "Point", "coordinates": [ -71.207841375120054, 42.335866095899654 ] } },
{ "type": "Feature", "properties": { "Location": "Church of the Redeemer", "Address": "379 Hammond St", "Precincts": "7-1", "Active": "Y", "Precinct": "7-1" }, "geometry": { "type": "Point", "coordinates": [ -71.168367005466877, 42.329365320876455 ] } },
{ "type": "Feature", "properties": { "Location": "Zervas School", "Address": "30 Beethoven Ave", "Precincts": "5-3 5-4", "Active": "Y", "Precinct": "5-4" }, "geometry": { "type": "Point", "coordinates": [ -71.217604774377321, 42.329783304012274 ] } },
{ "type": "Feature", "properties": { "Location": "Temple Beth Avodah", "Address": "45 Puddingstone Ln", "Precincts": "8-2", "Active": "Y", "Precinct": "8-2" }, "geometry": { "type": "Point", "coordinates": [ -71.175793451232224, 42.298912337045614 ] } },
{ "type": "Feature", "properties": { "Location": "Burr School", "Address": "171 Pine St", "Precincts": "4-1 4-4", "Active": "Y", "Precinct": "4-4" }, "geometry": { "type": "Point", "coordinates": [ -71.242053155020457, 42.352288676289447 ] } },
{ "type": "Feature", "properties": { "Location": "Hyde Community Center", "Address": "90 Lincoln St", "Precincts": "5-2 6-3", "Active": "Y", "Precinct": "6-3" }, "geometry": { "type": "Point", "coordinates": [ -71.209672337535437, 42.320955684854916 ] } },
{ "type": "Feature", "properties": { "Location": "Bigelow Middle School", "Address": "42 Vernon St", "Precincts": "1-3 7-2", "Active": "Y", "Precinct": "7-2" }, "geometry": { "type": "Point", "coordinates": [ -71.181443888416126, 42.353578716691189 ] } },
{ "type": "Feature", "properties": { "Location": "Ward School", "Address": "10 Dolphin Rd", "Precincts": "7-3 7-4", "Active": "Y", "Precinct": "7-4" }, "geometry": { "type": "Point", "coordinates": [ -71.178602543842089, 42.34040233741969 ] } },
{ "type": "Feature", "properties": { "Location": "Franklin School", "Address": "125 Derby St", "Precincts": "3-3 3-4", "Active": "Y", "Precinct": "3-3" }, "geometry": { "type": "Point", "coordinates": [ -71.228551303464215, 42.358295745059891 ] } },
{ "type": "Feature", "properties": { "Location": "Bowen School", "Address": "280 Cypress St", "Precincts": "6-1 6-2", "Active": "Y", "Precinct": "6-2" }, "geometry": { "type": "Point", "coordinates": [ -71.1874254768599, 42.321248626705128 ] } },
{ "type": "Feature", "properties": { "Location": "Scandinavian Living Center", "Address": "206 Waltham St", "Precincts": "2-1 3-1", "Active": "Y", "Precinct": "3-1" }, "geometry": { "type": "Point", "coordinates": [ -71.221404649835577, 42.359838721501063 ] } },
{ "type": "Feature", "properties": { "Location": "Temple Shalom", "Address": "175 Temple St", "Precincts": "3-2", "Active": "Y", "Precinct": "3-2" }, "geometry": { "type": "Point", "coordinates": [ -71.232694442735138, 42.342331184201775 ] } },
{ "type": "Feature", "properties": { "Location": "Cabot School", "Address": "229 Cabot St", "Precincts": "2-2 2-3", "Active": "Y", "Precinct": "2-3" }, "geometry": { "type": "Point", "coordinates": [ -71.198718667511912, 42.3489891800834 ] } },
{ "type": "Feature", "properties": { "Location": "Scandinavian Living Center", "Address": "206 Waltham St", "Precincts": "2-1 3-1", "Active": "Y", "Precinct": "2-1" }, "geometry": { "type": "Point", "coordinates": [ -71.221404649835577, 42.359838721501063 ] } }
]
}
