{"type":"FeatureCollection","features":[{"geometry": {"type": "Point", "coordinates": [-71.194015619676, 42.3596878684558]}, "type": "Feature", "id": 0, "properties": {"NAME": "Lincoln-Eliot School", "URL": "http://www.newton.k12.ma.us/lincolneliot", "Name_Full": "Lincoln-Eliot Elementary School", "SCHOOL_ID": 29, "SBL_ID": "11020 0001", "Name_dB": "LINCOLN-ELIOT", "ADDRESS": "191 Pearl St", "TYPE": "Elementary", "Image": "http://www.newton.k12.ma.us/cms/lib8/MA01907692/Centricity/ModuleInstance/2485/LE%20banner.jpg"}},{"geometry": {"type": "Point", "coordinates": [-71.21314725914345, 42.35813244930644]}, "type": "Feature", "id": 1, "properties": {"NAME": "Day Middle School", "URL": "http://www.newton.k12.ma.us/day", "Name_Full": "Day Middle School", "SCHOOL_ID": 63, "SBL_ID": "21022 0002", "Name_dB": "DAY", "ADDRESS": "21 Minot Pl", "TYPE": "Middle", "Image": "http://www.newton.k12.ma.us//cms/lib8/MA01907692/Centricity/Domain/26/day%20middle%20school.jpg"}},{"geometry": {"type": "Point", "coordinates": [-71.21973539490226, 42.35789876719236]}, "type": "Feature", "id": 2, "properties": {"NAME": "Fessenden School", "URL": "https://www.fessenden.org", "SBL_ID": "31028 0079", "ADDRESS": "246 Waltham St", "TYPE": "Private", "SCHOOL_ID": 905}},{"geometry": {"type": "Point", "coordinates": [-71.22865006815064, 42.358338832242765]}, "type": "Feature", "id": 3, "properties": {"NAME": "Franklin School", "URL": "http://www.newton.k12.ma.us/franklin", "Name_Full": "Franklin Elementary School", "SCHOOL_ID": 21, "SBL_ID": "34037 0021", "Name_dB": "FRANKLIN", "ADDRESS": "125 Derby St", "TYPE": "Elementary", "Image": "http://www.newton.k12.ma.us/cms/lib8/MA01907692/Centricity/ModuleInstance/2483/Franklin-building.white.jpg"}},{"geometry": {"type": "Point", "coordinates": [-71.19411760144763, 42.35652972231972]}, "type": "Feature", "id": 4, "properties": {"NAME": "Walnut Park Montessori School", "URL": "https://www.jwpschools.org/podium/default.aspx?t=132009", "SBL_ID": "12003 0004", "ADDRESS": "47 Walnut Pk", "TYPE": "Private", "SCHOOL_ID": 915}},{"geometry": {"type": "Point", "coordinates": [-71.19769038322558, 42.35489545946533]}, "type": "Feature", "id": 5, "properties": {"SBL_ID": "14023 0006", "SCHOOL_ID": 917, "TYPE": "Private", "NAME": "CATS Academy (closed)", "ADDRESS": "575 Washington St"}},{"geometry": {"type": "Point", "coordinates": [-71.18376750145478, 42.355137911375316]}, "type": "Feature", "id": 6, "properties": {"NAME": "Underwood School", "URL": "http://www.newton.k12.ma.us/underwood", "Name_Full": "Underwood Elementary School", "SCHOOL_ID": 43, "SBL_ID": "72002 0003", "Name_dB": "UNDERWOOD", "ADDRESS": "101 Vernon St", "TYPE": "Elementary", "Image": "http://www.newton.k12.ma.us/cms/lib8/MA01907692/Centricity/ModuleInstance/2489/3-images.jpg"}},{"geometry": {"type": "Point", "coordinates": [-71.20890550185219, 42.36057471372248]}, "type": "Feature", "id": 7, "properties": {"NAME": "Horace Mann School", "URL": "http://www.newton.k12.ma.us/horacemann", "Name_Full": "Horace Mann Elementary School", "SCHOOL_ID": 25, "SBL_ID": "21022 0001A", "Name_dB": "HORACE MANN", "ADDRESS": "687 Watertown St", "TYPE": "Elementary", "Image": "http://www.newton.k12.ma.us/cms/lib8/MA01907692/Centricity/ModuleInstance/2484/horace-mann.jpg"}},{"geometry": {"type": "Point", "coordinates": [-71.18125753242502, 42.35359686994871]}, "type": "Feature", "id": 8, "properties": {"NAME": "Bigelow Middle School", "URL": "http://www.newton.k12.ma.us/bigelow", "Name_Full": "Bigelow Middle School", "SCHOOL_ID": 61, "SBL_ID": "72010 0001", "Name_dB": "BIGELOW", "ADDRESS": "42 Vernon St", "TYPE": "Middle", "Image": "http://www.newton.k12.ma.us/cms/lib8/MA01907692/Centricity/ModuleInstance/2493/Bigelow%202015.jpg"}},{"geometry": {"type": "Point", "coordinates": [-71.19871788443645, 42.34898947522695]}, "type": "Feature", "id": 9, "properties": {"NAME": "Cabot School", "URL": "http://www.newton.k12.ma.us/cabot", "Name_Full": "Cabot Elementary School", "SCHOOL_ID": 9, "SBL_ID": "22008 0008", "Name_dB": "CABOT", "ADDRESS": "229 Cabot St", "TYPE": "Elementary", "Image": "http://www.newton.k12.ma.us/cms/lib8/MA01907692/Centricity/ModuleInstance/2481/cabot-building.jpg"}},{"geometry": {"type": "Point", "coordinates": [-71.19134920287877, 42.345789831795386]}, "type": "Feature", "id": 10, "properties": {"NAME": "Newton Country Day School", "URL": "http://www.newtoncountryday.org", "SBL_ID": "13018 0001", "ADDRESS": "785 Centre St", "TYPE": "Private", "SCHOOL_ID": 904}},{"geometry": {"type": "Point", "coordinates": [-71.18858922455054, 42.344083198626514]}, "type": "Feature", "id": 11, "properties": {"NAME": "Mt. Alvernia High School", "URL": "http://www.mountalverniahs.org/", "SBL_ID": "73001 0016", "ADDRESS": "790 Centre St", "TYPE": "Private", "SCHOOL_ID": 909}},{"geometry": {"type": "Point", "coordinates": [-71.2315833625408, 42.34212839758657]}, "type": "Feature", "id": 12, "properties": {"NAME": "Peirce School", "URL": "http://www.newton.k12.ma.us/peirce", "Name_Full": "Peirce Elementary School", "SCHOOL_ID": 39, "SBL_ID": "32021 0005", "Name_dB": "PEIRCE", "ADDRESS": "170 Temple St", "TYPE": "Elementary", "Image": "http://www.newton.k12.ma.us/cms/lib8/MA01907692/Centricity/ModuleInstance/2488/peirce%20mural%20cover.jpg"}},{"geometry": {"type": "Point", "coordinates": [-71.24940451329671, 42.34237543977129]}, "type": "Feature", "id": 13, "properties": {"NAME": "Williams School", "URL": "http://www.newton.k12.ma.us/williams", "Name_Full": "Williams Elementary School", "SCHOOL_ID": 47, "SBL_ID": "43031 0003", "Name_dB": "WILLIAMS", "ADDRESS": "141 Grove St", "TYPE": "Elementary", "Image": "http://www.newton.k12.ma.us/cms/lib8/MA01907692/Centricity/ModuleInstance/2491/Williams-Building.jpg"}},{"geometry": {"type": "Point", "coordinates": [-71.17866581796103, 42.34034203219004]}, "type": "Feature", "id": 14, "properties": {"NAME": "Ward School", "URL": "http://www.newton.k12.ma.us/ward", "Name_Full": "Ward Elementary School", "SCHOOL_ID": 45, "SBL_ID": "73016 0021", "Name_dB": "WARD", "ADDRESS": "10 Dolphin Rd", "TYPE": "Elementary", "Image": "http://www.newton.k12.ma.us/cms/lib8/MA01907692/Centricity/ModuleInstance/2490/Ward-Dolphin-Image.jpg"}},{"geometry": {"type": "Point", "coordinates": [-71.19949787803326, 42.33255155515998]}, "type": "Feature", "id": 15, "properties": {"NAME": "Mason-Rice School", "URL": "http://www.newton.k12.ma.us/masonrice", "Name_Full": "Mason-Rice Elementary School", "SCHOOL_ID": 31, "SBL_ID": "64032 0005", "Name_dB": "MASON-RICE", "ADDRESS": "149 Pleasant St", "TYPE": "Elementary", "Image": "http://www.newton.k12.ma.us/cms/lib8/MA01907692/Centricity/ModuleInstance/2486/csidehomepage01.jpg"}},{"geometry": {"type": "Point", "coordinates": [-71.21793806610607, 42.329754740988236]}, "type": "Feature", "id": 16, "properties": {"NAME": "Zervas School", "URL": "http://www.newton.k12.ma.us/zervas", "Name_Full": "Zervas Elementary School", "SCHOOL_ID": 49, "SBL_ID": "54013 0003", "Name_dB": "ZERVAS", "ADDRESS": "30 Beethoven Ave", "TYPE": "Elementary", "Image": "http://www.newton.k12.ma.us/cms/lib8/MA01907692/Centricity/ModuleInstance/2492/Zervas%20perspective%20render%2002.jpg"}},{"geometry": {"type": "Point", "coordinates": [-71.23256759976017, 42.326532608992004]}, "type": "Feature", "id": 17, "properties": {"NAME": "Angier School", "URL": "http://www.newton.k12.ma.us/angier", "Name_Full": "Angier Elementary School", "SCHOOL_ID": 1, "SBL_ID": "55010 0056", "Name_dB": "ANGIER", "ADDRESS": "1697 Beacon St", "TYPE": "Elementary", "Image": "http://www.newton.k12.ma.us/cms/lib8/MA01907692/Centricity/ModuleInstance/2478/Sunflower2.jpg"}},{"geometry": {"type": "Point", "coordinates": [-71.18770045089164, 42.321299673591966]}, "type": "Feature", "id": 18, "properties": {"NAME": "Bowen School", "URL": "http://www.newton.k12.ma.us/bowen", "Name_Full": "Bowen Elementary School", "SCHOOL_ID": 5, "SBL_ID": "65019 0046", "Name_dB": "BOWEN", "ADDRESS": "280 Cypress St", "TYPE": "Elementary", "Image": "http://www.newton.k12.ma.us/cms/lib8/MA01907692/Centricity/ModuleInstance/2479/bowen-building.jpg"}},{"geometry": {"type": "Point", "coordinates": [-71.18637968005609, 42.3136522101222]}, "type": "Feature", "id": 19, "properties": {"NAME": "Newton South High School", "URL": "http://www.newton.k12.ma.us/nshs", "Name_Full": "Newton South High School", "SCHOOL_ID": 75, "SBL_ID": "81051 0047", "Name_dB": "SOUTH", "ADDRESS": "140 Brandeis Rd", "TYPE": "High", "Image": "http://www.newton.k12.ma.us/cms/lib8/MA01907692/Centricity/ModuleInstance/2498/NSHS-building.jpg"}},{"geometry": {"type": "Point", "coordinates": [-71.20246139479364, 42.312933145151106]}, "type": "Feature", "id": 20, "properties": {"NAME": "Countryside School", "URL": "http://www.newton.k12.ma.us/countryside", "Name_Full": "Countryside Elementary School", "SCHOOL_ID": 15, "SBL_ID": "83006 0011", "Name_dB": "COUNTRYSIDE", "ADDRESS": "191 Dedham St", "TYPE": "Elementary", "Image": "http://www.newton.k12.ma.us/cms/lib8/MA01907692/Centricity/ModuleInstance/2482/countryside-building.jpg"}},{"geometry": {"type": "Point", "coordinates": [-71.19160576350527, 42.31004891160393]}, "type": "Feature", "id": 21, "properties": {"NAME": "Oak Hill Middle School", "URL": "http://www.newton.k12.ma.us/oakhill", "Name_Full": "Oak Hill Middle School", "SCHOOL_ID": 67, "SBL_ID": "81051 0052", "Name_dB": "OAK HILL", "ADDRESS": "130 Wheeler Rd", "TYPE": "Middle", "Image": "http://www.newton.k12.ma.us/cms/lib8/MA01907692/Centricity/ModuleInstance/2496/Panther_OH.jpg"}},{"geometry": {"type": "Point", "coordinates": [-71.1897347835385, 42.309114966402554]}, "type": "Feature", "id": 22, "properties": {"NAME": "Brown School", "URL": "http://www.newton.k12.ma.us/brown", "Name_Full": "Brown Middle School", "SCHOOL_ID": 65, "SBL_ID": "81005 0011", "Name_dB": "BROWN", "ADDRESS": "125 Meadowbrook Rd", "TYPE": "Middle", "Image": "http://www.newton.k12.ma.us/cms/lib8/MA01907692/Centricity/ModuleInstance/2494/Mission_Statement.png"}},{"geometry": {"type": "Point", "coordinates": [-71.17767461361125, 42.30203592255158]}, "type": "Feature", "id": 23, "properties": {"NAME": "Memorial-Spaulding School", "URL": "http://www.newton.k12.ma.us/memorialspaulding", "Name_Full": "Memorial-Spaulding Elementary School", "SCHOOL_ID": 33, "SBL_ID": "82021 0001", "Name_dB": "MEMORIAL-SPAULDING", "ADDRESS": "250 Brookline St", "TYPE": "Elementary", "Image": "http://www.newton.k12.ma.us/cms/lib8/MA01907692/Centricity/ModuleInstance/2487/Memorial-Spaulding-1.jpg"}},{"geometry": {"type": "Point", "coordinates": [-71.18817951067746, 42.29159194709562]}, "type": "Feature", "id": 24, "properties": {"NAME": "Solomon Schecter Lower School", "URL": "https://www.ssdsboston.org/", "SBL_ID": "84019 0002", "ADDRESS": "60 Stein Cir", "TYPE": "Private", "SCHOOL_ID": 914}},{"geometry": {"type": "Point", "coordinates": [-71.19580406757856, 42.29130067734688]}, "type": "Feature", "id": 25, "properties": {"NAME": "Solomon Schecter Upper School", "URL": "https://www.ssdsboston.org/", "SBL_ID": "84034 0002R", "ADDRESS": "125 Wells Ave", "TYPE": "Private", "SCHOOL_ID": 913}},{"geometry": {"type": "Point", "coordinates": [-71.24209555976599, 42.35223915144516]}, "type": "Feature", "id": 26, "properties": {"NAME": "Burr School", "URL": "http://www.newton.k12.ma.us/burr", "Name_Full": "Burr Elementary School", "SCHOOL_ID": 7, "SBL_ID": "44035 0095", "Name_dB": "BURR", "ADDRESS": "171 Pine St", "TYPE": "Elementary", "Image": "http://www.newton.k12.ma.us/cms/lib8/MA01907692/Centricity/ModuleInstance/2480/burr-building.jpg"}},{"geometry": {"type": "Point", "coordinates": [-71.16496196154633, 42.32908413397758]}, "type": "Feature", "id": 27, "properties": {"NAME": "Chestnut Hill School", "URL": "http://www.tchs.org/", "SBL_ID": "63031 0010", "ADDRESS": "428 Hammond St", "TYPE": "Private", "SCHOOL_ID": 901}},{"geometry": {"type": "Point", "coordinates": [-71.16283871854299, 42.32681110877037]}, "type": "Feature", "id": 28, "properties": {"NAME": "Brimmer and May School", "URL": "https://www.brimmer.org", "SBL_ID": "63033 0021", "ADDRESS": "69 Middlesex Rd", "TYPE": "Private", "SCHOOL_ID": 900}},{"geometry": {"type": "Point", "coordinates": [-71.19471459712327, 42.35628143372536]}, "type": "Feature", "id": 29, "properties": {"NAME": "Jackson School", "URL": "https://www.jwpschools.org/podium/default.aspx?t=132008", "SBL_ID": "12003 0004", "ADDRESS": "200 Jackson Rd", "TYPE": "Private", "SCHOOL_ID": 906}},{"geometry": {"type": "Point", "coordinates": [-71.17347550129988, 42.3386580831066]}, "type": "Feature", "id": 30, "properties": {"NAME": "Mt. Alvernia Academy", "URL": "http://www.maa.school/", "SBL_ID": "63008 0014", "ADDRESS": "20 Manet Rd", "TYPE": "Private", "SCHOOL_ID": 909}},{"geometry": {"type": "Point", "coordinates": [-71.20857326863737, 42.34515745978409]}, "type": "Feature", "id": 31, "properties": {"NAME": "Newton North High School", "URL": "http://www.newton.k12.ma.us/nnhs", "Name_Full": "Newton North High School", "SCHOOL_ID": 71, "SBL_ID": "24018 0001", "Name_dB": "NORTH", "ADDRESS": "360 Lowell Ave", "TYPE": "High", "Image": "http://www.newton.k12.ma.us/cms/lib8/MA01907692/Centricity/ModuleInstance/2497/NNHS-building.jpg"}},{"geometry": {"type": "Point", "coordinates": [-71.20938485731944, 42.35700018000834]}, "type": "Feature", "id": 32, "properties": {"SBL_ID": "23004 0010", "SCHOOL_ID": 0, "TYPE": "Special Ed", "NAME": "Education Center", "ADDRESS": "100 Walnut St"}}]}