{"type":"FeatureCollection","features":[{"geometry": {"type": "Point", "coordinates": [-71.194015619676, 42.35968786845582]}, "type": "Feature", "id": 0, "properties": {"NAME": "Lincoln-Eliot School", "Name_Full": "Lincoln-Eliot Elementary School", "SBL_ID": "11020 0001", "Name_dB": "LINCOLN-ELIOT", "ADDRESS": "191 PEARL ST", "TYPE": "Elementary", "SCHOOL_ID": 29}},{"geometry": {"type": "Point", "coordinates": [-71.21314725914345, 42.35813244930644]}, "type": "Feature", "id": 1, "properties": {"NAME": "Day Middle School", "Name_Full": "Day Middle School", "SBL_ID": "21022 0002", "Name_dB": "DAY", "ADDRESS": "21 MINOT PL", "TYPE": "Middle", "SCHOOL_ID": 63}},{"geometry": {"type": "Point", "coordinates": [-71.21973539490226, 42.35789876719236]}, "type": "Feature", "id": 2, "properties": {"SBL_ID": "31028 0079", "SCHOOL_ID": 905, "TYPE": "Private", "NAME": "Fessenden School", "ADDRESS": "246 WALTHAM ST"}},{"geometry": {"type": "Point", "coordinates": [-71.22865006815064, 42.358338832242765]}, "type": "Feature", "id": 3, "properties": {"NAME": "Franklin School", "Name_Full": "Franklin Elementary School", "SBL_ID": "34037 0021", "Name_dB": "FRANKLIN", "ADDRESS": "125 DERBY ST", "TYPE": "Elementary", "SCHOOL_ID": 21}},{"geometry": {"type": "Point", "coordinates": [-71.19411760144763, 42.356529722319735]}, "type": "Feature", "id": 4, "properties": {"SBL_ID": "12003 0004", "SCHOOL_ID": 915, "TYPE": "Private", "NAME": "Walnut Park Montessori School", "ADDRESS": "47 WALNUT PK"}},{"geometry": {"type": "Point", "coordinates": [-71.19769038322558, 42.35489545946534]}, "type": "Feature", "id": 5, "properties": {"SBL_ID": "14023 0006", "SCHOOL_ID": 917, "TYPE": "Private", "NAME": "Trinity Catholic High School", "ADDRESS": "575 WASHINGTON ST"}},{"geometry": {"type": "Point", "coordinates": [-71.18376750145478, 42.355137911375316]}, "type": "Feature", "id": 6, "properties": {"NAME": "Underwood School", "Name_Full": "Underwood Elementary School", "SBL_ID": "72002 0003", "Name_dB": "UNDERWOOD", "ADDRESS": "101 VERNON ST", "TYPE": "Elementary", "SCHOOL_ID": 43}},{"geometry": {"type": "Point", "coordinates": [-71.21355655583551, 42.35482384349767]}, "type": "Feature", "id": 7, "properties": {"NAME": "Horace Mann School", "Name_Full": "Horace Mann Elementary School", "SBL_ID": "21022 0001A", "Name_dB": "HORACE MANN", "ADDRESS": "687 WATERTOWN ST", "TYPE": "Elementary", "SCHOOL_ID": 25}},{"geometry": {"type": "Point", "coordinates": [-71.18125753242502, 42.35359686994871]}, "type": "Feature", "id": 8, "properties": {"NAME": "Bigelow Middle School", "Name_Full": "Bigelow Middle School", "SBL_ID": "72010 0001", "Name_dB": "BIGELOW", "ADDRESS": "42 VERNON ST", "TYPE": "Middle", "SCHOOL_ID": 61}},{"geometry": {"type": "Point", "coordinates": [-71.19871788443645, 42.34898947522695]}, "type": "Feature", "id": 9, "properties": {"NAME": "Cabot School", "Name_Full": "Cabot Elementary School", "SBL_ID": "22008 0008", "Name_dB": "CABOT", "ADDRESS": "229 CABOT ST", "TYPE": "Elementary", "SCHOOL_ID": 9}},{"geometry": {"type": "Point", "coordinates": [-71.19134920287877, 42.345789831795386]}, "type": "Feature", "id": 10, "properties": {"SBL_ID": "13018 0001", "SCHOOL_ID": 904, "TYPE": "Private", "NAME": "Newton Country Day School", "ADDRESS": "785 CENTRE ST"}},{"geometry": {"type": "Point", "coordinates": [-71.18858922455054, 42.344083198626514]}, "type": "Feature", "id": 11, "properties": {"SBL_ID": "73001 0016", "SCHOOL_ID": 909, "TYPE": "Private", "NAME": "Mt. Alvernia High School", "ADDRESS": "790 CENTRE ST"}},{"geometry": {"type": "Point", "coordinates": [-71.2315833625408, 42.34212839758657]}, "type": "Feature", "id": 12, "properties": {"NAME": "Peirce School", "Name_Full": "Peirce Elementary School", "SBL_ID": "32021 0005", "Name_dB": "PEIRCE", "ADDRESS": "170 TEMPLE ST", "TYPE": "Elementary", "SCHOOL_ID": 39}},{"geometry": {"type": "Point", "coordinates": [-71.24940451329671, 42.34237543977129]}, "type": "Feature", "id": 13, "properties": {"NAME": "Williams School", "Name_Full": "Williams Elementary School", "SBL_ID": "43031 0003", "Name_dB": "WILLIAMS", "ADDRESS": "141 GROVE ST", "TYPE": "Elementary", "SCHOOL_ID": 47}},{"geometry": {"type": "Point", "coordinates": [-71.17866581796103, 42.34034203219004]}, "type": "Feature", "id": 14, "properties": {"NAME": "Ward School", "Name_Full": "Ward Elementary School", "SBL_ID": "73016 0021", "Name_dB": "WARD", "ADDRESS": "10 DOLPHIN RD", "TYPE": "Elementary", "SCHOOL_ID": 45}},{"geometry": {"type": "Point", "coordinates": [-71.19949787803326, 42.33255155515998]}, "type": "Feature", "id": 15, "properties": {"NAME": "Mason-Rice School", "Name_Full": "Mason-Rice Elementary School", "SBL_ID": "64032 0005", "Name_dB": "MASON-RICE", "ADDRESS": "149 PLEASANT ST  CTR", "TYPE": "Elementary", "SCHOOL_ID": 31}},{"geometry": {"type": "Point", "coordinates": [-71.21793806610607, 42.329754740988236]}, "type": "Feature", "id": 16, "properties": {"NAME": "Zervas School", "Name_Full": "Zervas Elementary School", "SBL_ID": "54013 0003", "Name_dB": "ZERVAS", "ADDRESS": "30 BEETHOVEN AVE", "TYPE": "Elementary", "SCHOOL_ID": 49}},{"geometry": {"type": "Point", "coordinates": [-71.23256759976017, 42.326532608992004]}, "type": "Feature", "id": 17, "properties": {"NAME": "Angier School", "Name_Full": "Angier Elementary School", "SBL_ID": "55010 0056", "Name_dB": "ANGIER", "ADDRESS": "1697 BEACON ST", "TYPE": "Elementary", "SCHOOL_ID": 1}},{"geometry": {"type": "Point", "coordinates": [-71.18770045089164, 42.321299673591966]}, "type": "Feature", "id": 18, "properties": {"NAME": "Bowen School", "Name_Full": "Bowen Elementary School", "SBL_ID": "65019 0046", "Name_dB": "BOWEN", "ADDRESS": "280 CYPRESS ST", "TYPE": "Elementary", "SCHOOL_ID": 5}},{"geometry": {"type": "Point", "coordinates": [-71.18637968005609, 42.313652210122214]}, "type": "Feature", "id": 19, "properties": {"NAME": "Newton South High School", "Name_Full": "Newton South High School", "SBL_ID": "81051 0047", "Name_dB": "SOUTH", "ADDRESS": "140 BRANDEIS RD", "TYPE": "High", "SCHOOL_ID": 75}},{"geometry": {"type": "Point", "coordinates": [-71.20246139479364, 42.312933145151106]}, "type": "Feature", "id": 20, "properties": {"NAME": "Countryside School", "Name_Full": "Countryside Elementary School", "SBL_ID": "83006 0011", "Name_dB": "COUNTRYSIDE", "ADDRESS": "191 DEDHAM ST", "TYPE": "Elementary", "SCHOOL_ID": 15}},{"geometry": {"type": "Point", "coordinates": [-71.19160576350527, 42.31004891160395]}, "type": "Feature", "id": 21, "properties": {"NAME": "Oak Hill Middle School", "Name_Full": "Oak Hill Middle School", "SBL_ID": "81051 0052", "Name_dB": "OAK HILL", "ADDRESS": "130 WHEELER RD", "TYPE": "Middle", "SCHOOL_ID": 67}},{"geometry": {"type": "Point", "coordinates": [-71.1897347835385, 42.309114966402554]}, "type": "Feature", "id": 22, "properties": {"NAME": "Brown Middle School", "Name_Full": "Brown Middle School", "SBL_ID": "81005 0011", "Name_dB": "BROWN", "ADDRESS": "125 MEADOWBROOK RD", "TYPE": "Middle", "SCHOOL_ID": 65}},{"geometry": {"type": "Point", "coordinates": [-71.17767461361125, 42.302035922551596]}, "type": "Feature", "id": 23, "properties": {"NAME": "Memorial-Spaulding School", "Name_Full": "Memorial-Spaulding Elementary School", "SBL_ID": "82021 0001", "Name_dB": "MEMORIAL-SPAULDING", "ADDRESS": "250 BROOKLINE ST", "TYPE": "Elementary", "SCHOOL_ID": 33}},{"geometry": {"type": "Point", "coordinates": [-71.18817951067746, 42.29159194709562]}, "type": "Feature", "id": 24, "properties": {"SBL_ID": "84019 0002", "SCHOOL_ID": 914, "TYPE": "Private", "NAME": "Solomon Schecter Lower School", "ADDRESS": "60 STEIN CIR"}},{"geometry": {"type": "Point", "coordinates": [-71.19580406757856, 42.2913006773469]}, "type": "Feature", "id": 25, "properties": {"SBL_ID": "84034 0002R", "SCHOOL_ID": 913, "TYPE": "Private", "NAME": "Solomon Schecter Upper School", "ADDRESS": "125 WELLS AVE"}},{"geometry": {"type": "Point", "coordinates": [-71.24209555976599, 42.35223915144516]}, "type": "Feature", "id": 26, "properties": {"NAME": "Burr School", "Name_Full": "Burr Elementary School", "SBL_ID": "44035 0095", "Name_dB": "BURR", "ADDRESS": "171 PINE ST", "TYPE": "Elementary", "SCHOOL_ID": 7}},{"geometry": {"type": "Point", "coordinates": [-71.16496196154633, 42.3290841339776]}, "type": "Feature", "id": 27, "properties": {"SBL_ID": "63031 0010", "SCHOOL_ID": 901, "TYPE": "Private", "NAME": "Chestnut Hill School", "ADDRESS": "428 HAMMOND ST"}},{"geometry": {"type": "Point", "coordinates": [-71.16283871854299, 42.32681110877037]}, "type": "Feature", "id": 28, "properties": {"SBL_ID": "63033 0021", "SCHOOL_ID": 900, "TYPE": "Private", "NAME": "Brimmer and May School", "ADDRESS": "69 MIDDLESEX RD"}},{"geometry": {"type": "Point", "coordinates": [-71.19471459712327, 42.35628143372536]}, "type": "Feature", "id": 29, "properties": {"SBL_ID": "12003 0004", "SCHOOL_ID": 906, "TYPE": "Private", "NAME": "Jackson School", "ADDRESS": "200 JACKSON RD"}},{"geometry": {"type": "Point", "coordinates": [-71.19826527827065, 42.3553471612567]}, "type": "Feature", "id": 30, "properties": {"SBL_ID": "14023 0006", "SCHOOL_ID": 927, "TYPE": "Private", "NAME": "Jewish Community Day School", "ADDRESS": "25 LENGLEN RD"}},{"geometry": {"type": "Point", "coordinates": [-71.17347550129988, 42.3386580831066]}, "type": "Feature", "id": 31, "properties": {"SBL_ID": "63008 0014", "SCHOOL_ID": 909, "TYPE": "Private", "NAME": "Mt. Alvernia Academy", "ADDRESS": "20 MANET RD"}},{"geometry": {"type": "Point", "coordinates": [-71.19325947286934, 42.35621092534617]}, "type": "Feature", "id": 32, "properties": {"SBL_ID": "12003 0004", "SCHOOL_ID": 0, "TYPE": "Private", "NAME": "Aquinas Junior College", "ADDRESS": "69 WALNUT PK"}},{"geometry": {"type": "Point", "coordinates": [-71.194317017533, 42.35749813325648]}, "type": "Feature", "id": 33, "properties": {"SBL_ID": "12003 0004", "SCHOOL_ID": 0, "TYPE": "Private", "NAME": "Rashi School", "ADDRESS": "15 WALNUT PK"}},{"geometry": {"type": "Point", "coordinates": [-71.20857326863737, 42.34515745978409]}, "type": "Feature", "id": 34, "properties": {"NAME": "Newton North High School", "Name_Full": "Newton North High School", "SBL_ID": "24018 0001", "Name_dB": "NORTH", "ADDRESS": "360 LOWELL AVE", "TYPE": "High", "SCHOOL_ID": 71}},{"geometry": {"type": "Point", "coordinates": [-71.20938485731944, 42.35700018000834]}, "type": "Feature", "id": 35, "properties": {"SBL_ID": "23004 0010", "SCHOOL_ID": 0, "TYPE": "Special Ed", "NAME": "Education Center", "ADDRESS": "100 Walnut St"}}]}