{
"type": "FeatureCollection",
"name": "Schools",
"crs": { "type": "name", "properties": { "name": "urn:ogc:def:crs:OGC:1.3:CRS84" } },
"features": [
{ "type": "Feature", "properties": { "SBL_ID": "11020 0001", "SCHOOL_ID": 29, "ADDRESS": "191 Pearl St", "NAME": "Lincoln-Eliot School", "Name_dB": "LINCOLN-ELIOT", "Name_Full": "Lincoln-Eliot Elementary School", "URL": "http://www.newton.k12.ma.us/lincolneliot", "Type": "Elementary", "Image": "http://www.newton.k12.ma.us/cms/lib8/MA01907692/Centricity/ModuleInstance/2485/LE%20banner.jpg" }, "geometry": { "type": "Point", "coordinates": [ -71.194016368094552, 42.35968756441045 ] } },
{ "type": "Feature", "properties": { "SBL_ID": "21022 0002", "SCHOOL_ID": 63, "ADDRESS": "21 Minot Pl", "NAME": "Day Middle School", "Name_dB": "DAY", "Name_Full": "Day Middle School", "URL": "http://www.newton.k12.ma.us/day", "Type": "Middle", "Image": "http://www.newton.k12.ma.us//cms/lib8/MA01907692/Centricity/Domain/26/day%20middle%20school.jpg" }, "geometry": { "type": "Point", "coordinates": [ -71.21314805400236, 42.358132170499289 ] } },
{ "type": "Feature", "properties": { "SBL_ID": "31028 0079", "SCHOOL_ID": 905, "ADDRESS": "246 Waltham St", "NAME": "Fessenden School", "Name_dB": null, "Name_Full": null, "URL": "https://www.fessenden.org", "Type": "Private", "Image": " " }, "geometry": { "type": "Point", "coordinates": [ -71.219736205074128, 42.357898497006815 ] } },
{ "type": "Feature", "properties": { "SBL_ID": "34037 0021", "SCHOOL_ID": 21, "ADDRESS": "125 Derby St", "NAME": "Franklin School", "Name_dB": "FRANKLIN", "Name_Full": "Franklin Elementary School", "URL": "http://www.newton.k12.ma.us/franklin", "Type": "Elementary", "Image": "http://www.newton.k12.ma.us/cms/lib8/MA01907692/Centricity/ModuleInstance/2483/Franklin-building.white.jpg" }, "geometry": { "type": "Point", "coordinates": [ -71.228650897336379, 42.358338573501641 ] } },
{ "type": "Feature", "properties": { "SBL_ID": "12003 0004", "SCHOOL_ID": 915, "ADDRESS": "47 Walnut Pk", "NAME": "Walnut Park Montessori School", "Name_dB": null, "Name_Full": null, "URL": "https://www.jwpschools.org/podium/default.aspx?t=132009", "Type": "Private", "Image": " " }, "geometry": { "type": "Point", "coordinates": [ -71.194118357208424, 42.356529419215796 ] } },
{ "type": "Feature", "properties": { "SBL_ID": "14023 0006", "SCHOOL_ID": 917, "ADDRESS": "575 Washington St", "NAME": "CATS Academy (closed)", "Name_dB": null, "Name_Full": null, "URL": " ", "Type": "Private", "Image": " " }, "geometry": { "type": "Point", "coordinates": [ -71.197691150687561, 42.354895161434214 ] } },
{ "type": "Feature", "properties": { "SBL_ID": "72002 0003", "SCHOOL_ID": 43, "ADDRESS": "101 Vernon St", "NAME": "Underwood School", "Name_dB": "UNDERWOOD", "Name_Full": "Underwood Elementary School", "URL": "http://www.newton.k12.ma.us/underwood", "Type": "Elementary", "Image": "http://www.newton.k12.ma.us/cms/lib8/MA01907692/Centricity/ModuleInstance/2489/3-images.jpg" }, "geometry": { "type": "Point", "coordinates": [ -71.18376823711705, 42.355137595148896 ] } },
{ "type": "Feature", "properties": { "SBL_ID": "23001 0020", "SCHOOL_ID": 25, "ADDRESS": "225 Nevada St", "NAME": "Horace Mann School", "Name_dB": "HORACE MANN", "Name_Full": "Horace Mann Elementary School", "URL": "http://www.newton.k12.ma.us/horacemann", "Type": "Elementary", "Image": "http://www.newton.k12.ma.us/cms/lib8/MA01907692/Centricity/ModuleInstance/2484/horace-mann.jpg" }, "geometry": { "type": "Point", "coordinates": [ -71.208906281684776, 42.360574428734495 ] } },
{ "type": "Feature", "properties": { "SBL_ID": "72010 0001", "SCHOOL_ID": 61, "ADDRESS": "42 Vernon St", "NAME": "Bigelow Middle School", "Name_dB": "BIGELOW", "Name_Full": "Bigelow Middle School", "URL": "http://www.newton.k12.ma.us/bigelow", "Type": "Middle", "Image": "http://www.newton.k12.ma.us/cms/lib8/MA01907692/Centricity/ModuleInstance/2493/Bigelow%202015.jpg" }, "geometry": { "type": "Point", "coordinates": [ -71.18125826592096, 42.353596550822225 ] } },
{ "type": "Feature", "properties": { "SBL_ID": "22008 0008", "SCHOOL_ID": 9, "ADDRESS": "229 Cabot St", "NAME": "Cabot School", "Name_dB": "CABOT", "Name_Full": "Cabot Elementary School", "URL": "http://www.newton.k12.ma.us/cabot", "Type": "Elementary", "Image": "http://www.newton.k12.ma.us/cms/lib8/MA01907692/Centricity/ModuleInstance/2481/cabot-building.jpg" }, "geometry": { "type": "Point", "coordinates": [ -71.198718667511812, 42.348989180083471 ] } },
{ "type": "Feature", "properties": { "SBL_ID": "13018 0001", "SCHOOL_ID": 904, "ADDRESS": "785 Centre St", "NAME": "Newton Country Day School", "Name_dB": null, "Name_Full": null, "URL": "http://www.newtoncountryday.org", "Type": "Private", "Image": " " }, "geometry": { "type": "Point", "coordinates": [ -71.19134997661169, 42.345789527803916 ] } },
{ "type": "Feature", "properties": { "SBL_ID": "73001 0016", "SCHOOL_ID": 909, "ADDRESS": "790 Centre St", "NAME": "Mt. Alvernia High School", "Name_dB": null, "Name_Full": null, "URL": "http://www.mountalverniahs.org/", "Type": "Private", "Image": " " }, "geometry": { "type": "Point", "coordinates": [ -71.188589995926506, 42.344082891431455 ] } },
{ "type": "Feature", "properties": { "SBL_ID": "32021 0005", "SCHOOL_ID": 39, "ADDRESS": "170 Temple St", "NAME": "Peirce School", "Name_dB": "PEIRCE", "Name_Full": "Peirce Elementary School", "URL": "http://www.newton.k12.ma.us/peirce", "Type": "Elementary", "Image": "http://www.newton.k12.ma.us/cms/lib8/MA01907692/Centricity/ModuleInstance/2488/peirce%20mural%20cover.jpg" }, "geometry": { "type": "Point", "coordinates": [ -71.231584234916454, 42.342128147608527 ] } },
{ "type": "Feature", "properties": { "SBL_ID": "43031 0003", "SCHOOL_ID": 47, "ADDRESS": "141 Grove St", "NAME": "Williams School", "Name_dB": "WILLIAMS", "Name_Full": "Williams Elementary School", "URL": "http://www.newton.k12.ma.us/williams", "Type": "Elementary", "Image": "http://www.newton.k12.ma.us/cms/lib8/MA01907692/Centricity/ModuleInstance/2491/Williams-Building.jpg" }, "geometry": { "type": "Point", "coordinates": [ -71.249405425154009, 42.342375213226745 ] } },
{ "type": "Feature", "properties": { "SBL_ID": "73016 0021", "SCHOOL_ID": 45, "ADDRESS": "10 Dolphin Rd", "NAME": "Ward School", "Name_dB": "WARD", "Name_Full": "Ward Elementary School", "URL": "http://www.newton.k12.ma.us/ward", "Type": "Elementary", "Image": "http://www.newton.k12.ma.us/cms/lib8/MA01907692/Centricity/ModuleInstance/2490/Ward-Dolphin-Image.jpg" }, "geometry": { "type": "Point", "coordinates": [ -71.178666575461918, 42.340341712809042 ] } },
{ "type": "Feature", "properties": { "SBL_ID": "64032 0005", "SCHOOL_ID": 31, "ADDRESS": "149 Pleasant St", "NAME": "Mason-Rice School", "Name_dB": "MASON-RICE", "Name_Full": "Mason-Rice Elementary School", "URL": "http://www.newton.k12.ma.us/masonrice", "Type": "Elementary", "Image": "http://www.newton.k12.ma.us/cms/lib8/MA01907692/Centricity/ModuleInstance/2486/csidehomepage01.jpg" }, "geometry": { "type": "Point", "coordinates": [ -71.199498699898768, 42.332551265367364 ] } },
{ "type": "Feature", "properties": { "SBL_ID": "54013 0003", "SCHOOL_ID": 49, "ADDRESS": "30 Beethoven Ave", "NAME": "Zervas School", "Name_dB": "ZERVAS", "Name_Full": "Zervas Elementary School", "URL": "http://www.newton.k12.ma.us/zervas", "Type": "Elementary", "Image": "http://www.newton.k12.ma.us/cms/lib8/MA01907692/Centricity/ModuleInstance/2492/Zervas%20perspective%20render%2002.jpg" }, "geometry": { "type": "Point", "coordinates": [ -71.217938935739994, 42.329754476564965 ] } },
{ "type": "Feature", "properties": { "SBL_ID": "55010 0056", "SCHOOL_ID": 1, "ADDRESS": "1697 Beacon St", "NAME": "Angier School", "Name_dB": "ANGIER", "Name_Full": "Angier Elementary School", "URL": "http://www.newton.k12.ma.us/angier", "Type": "Elementary", "Image": "http://www.newton.k12.ma.us/cms/lib8/MA01907692/Centricity/ModuleInstance/2478/Sunflower2.jpg" }, "geometry": { "type": "Point", "coordinates": [ -71.232568509568409, 42.326532365100377 ] } },
{ "type": "Feature", "properties": { "SBL_ID": "65019 0046", "SCHOOL_ID": 5, "ADDRESS": "280 Cypress St", "NAME": "Bowen School", "Name_dB": "BOWEN", "Name_Full": "Bowen Elementary School", "URL": "http://www.newton.k12.ma.us/bowen", "Type": "Elementary", "Image": "http://www.newton.k12.ma.us/cms/lib8/MA01907692/Centricity/ModuleInstance/2479/bowen-building.jpg" }, "geometry": { "type": "Point", "coordinates": [ -71.187701271565842, 42.321299370871429 ] } },
{ "type": "Feature", "properties": { "SBL_ID": "81051 0047", "SCHOOL_ID": 75, "ADDRESS": "140 Brandeis Rd", "NAME": "Newton South High School", "Name_dB": "SOUTH", "Name_Full": "Newton South High School", "URL": "http://www.newton.k12.ma.us/nshs", "Type": "High", "Image": "http://www.newton.k12.ma.us/cms/lib8/MA01907692/Centricity/ModuleInstance/2498/NSHS-building.jpg" }, "geometry": { "type": "Point", "coordinates": [ -71.186380514974459, 42.313651907504024 ] } },
{ "type": "Feature", "properties": { "SBL_ID": "83006 0011", "SCHOOL_ID": 15, "ADDRESS": "191 Dedham St", "NAME": "Countryside School", "Name_dB": "COUNTRYSIDE", "Name_Full": "Countryside Elementary School", "URL": "http://www.newton.k12.ma.us/countryside", "Type": "Elementary", "Image": "http://www.newton.k12.ma.us/cms/lib8/MA01907692/Centricity/ModuleInstance/2482/countryside-building.jpg" }, "geometry": { "type": "Point", "coordinates": [ -71.202462267535878, 42.312932864549275 ] } },
{ "type": "Feature", "properties": { "SBL_ID": "81051 0052", "SCHOOL_ID": 67, "ADDRESS": "130 Wheeler Rd", "NAME": "Oak Hill Middle School", "Name_dB": "OAK HILL", "Name_Full": "Oak Hill Middle School", "URL": "http://www.newton.k12.ma.us/oakhill", "Type": "Middle", "Image": "http://www.newton.k12.ma.us/cms/lib8/MA01907692/Centricity/ModuleInstance/2496/Panther_OH.jpg" }, "geometry": { "type": "Point", "coordinates": [ -71.191606618303311, 42.310048616989327 ] } },
{ "type": "Feature", "properties": { "SBL_ID": "81005 0011", "SCHOOL_ID": 65, "ADDRESS": "125 Meadowbrook Rd", "NAME": "Brown Middle School", "Name_dB": "BROWN", "Name_Full": "Brown Middle School", "URL": "http://www.newton.k12.ma.us/brown", "Type": "Middle", "Image": "http://www.newton.k12.ma.us/cms/lib8/MA01907692/Centricity/ModuleInstance/2494/Mission_Statement.png" }, "geometry": { "type": "Point", "coordinates": [ -71.189735636226516, 42.309114669473857 ] } },
{ "type": "Feature", "properties": { "SBL_ID": "82021 0001", "SCHOOL_ID": 33, "ADDRESS": "250 Brookline St", "NAME": "Memorial-Spaulding School", "Name_dB": "MEMORIAL-SPAULDING", "Name_Full": "Memorial-Spaulding Elementary School", "URL": "http://www.newton.k12.ma.us/memorialspaulding", "Type": "Elementary", "Image": "http://www.newton.k12.ma.us/cms/lib8/MA01907692/Centricity/ModuleInstance/2487/Memorial-Spaulding-1.jpg" }, "geometry": { "type": "Point", "coordinates": [ -71.177675455067501, 42.302035610844335 ] } },
{ "type": "Feature", "properties": { "SBL_ID": "84019 0002", "SCHOOL_ID": 914, "ADDRESS": "60 Stein Cir", "NAME": "Solomon Schecter Lower School", "Name_dB": null, "Name_Full": null, "URL": "https://www.ssdsboston.org/", "Type": "Private", "Image": " " }, "geometry": { "type": "Point", "coordinates": [ -71.188180399315769, 42.291591652399688 ] } },
{ "type": "Feature", "properties": { "SBL_ID": "84034 0002R", "SCHOOL_ID": 913, "ADDRESS": "125 Wells Ave", "NAME": "Solomon Schecter Upper School", "Name_dB": null, "Name_Full": null, "URL": "https://www.ssdsboston.org/", "Type": "Private", "Image": " " }, "geometry": { "type": "Point", "coordinates": [ -71.195804974063648, 42.291300393295394 ] } },
{ "type": "Feature", "properties": { "SBL_ID": "44035 0095", "SCHOOL_ID": 7, "ADDRESS": "171 Pine St", "NAME": "Burr School", "Name_dB": "BURR", "Name_Full": "Burr Elementary School", "URL": "http://www.newton.k12.ma.us/burr", "Type": "Elementary", "Image": "http://www.newton.k12.ma.us/cms/lib8/MA01907692/Centricity/ModuleInstance/2480/burr-building.jpg" }, "geometry": { "type": "Point", "coordinates": [ -71.242096432911325, 42.352238912106813 ] } },
{ "type": "Feature", "properties": { "SBL_ID": "63031 0010", "SCHOOL_ID": 901, "ADDRESS": "428 Hammond St", "NAME": "Chestnut Hill School", "Name_dB": null, "Name_Full": null, "URL": "http://www.tchs.org/", "Type": "Private", "Image": " " }, "geometry": { "type": "Point", "coordinates": [ -71.164962713560058, 42.329083798933574 ] } },
{ "type": "Feature", "properties": { "SBL_ID": "63033 0021", "SCHOOL_ID": 900, "ADDRESS": "69 Middlesex Rd", "NAME": "Brimmer and May School", "Name_dB": null, "Name_Full": null, "URL": "https://www.brimmer.org", "Type": "Private", "Image": " " }, "geometry": { "type": "Point", "coordinates": [ -71.16283947089066, 42.326810771376778 ] } },
{ "type": "Feature", "properties": { "SBL_ID": "12003 0004", "SCHOOL_ID": 906, "ADDRESS": "200 Jackson Rd", "NAME": "Jackson School", "Name_dB": null, "Name_Full": null, "URL": "https://www.jwpschools.org/podium/default.aspx?t=132008", "Type": "Private", "Image": " " }, "geometry": { "type": "Point", "coordinates": [ -71.194715354783298, 42.356281131461635 ] } },
{ "type": "Feature", "properties": { "SBL_ID": "63008 0014", "SCHOOL_ID": 909, "ADDRESS": "20 Manet Rd", "NAME": "Mt. Alvernia Academy", "Name_dB": null, "Name_Full": null, "URL": "http://www.maa.school/", "Type": "Private", "Image": " " }, "geometry": { "type": "Point", "coordinates": [ -71.173476250925333, 42.338657757250409 ] } },
{ "type": "Feature", "properties": { "SBL_ID": "24018 0001", "SCHOOL_ID": 71, "ADDRESS": "360 Lowell Ave", "NAME": "Newton North High School", "Name_dB": "NORTH", "Name_Full": "Newton North High School", "URL": "http://www.newton.k12.ma.us/nnhs", "Type": "High", "Image": "http://www.newton.k12.ma.us/cms/lib8/MA01907692/Centricity/ModuleInstance/2497/NNHS-building.jpg" }, "geometry": { "type": "Point", "coordinates": [ -71.20857408248493, 42.345157178610457 ] } },
{ "type": "Feature", "properties": { "SBL_ID": "23004 0010", "SCHOOL_ID": null, "ADDRESS": "100 Walnut St", "NAME": "Education Center", "Name_dB": null, "Name_Full": null, "URL": " ", "Type": "Admin", "Image": " " }, "geometry": { "type": "Point", "coordinates": [ -71.209385646287416, 42.356999896629169 ] } },
{ "type": "Feature", "properties": { "SBL_ID": " 12003 0004A", "SCHOOL_ID": null, "ADDRESS": "15 Walnut Park", "NAME": "Future Lincoln-Eliot", "Name_dB": null, "Name_Full": null, "URL": null, "Type": null, "Image": null }, "geometry": { "type": "Point", "coordinates": [ -71.194252446877385, 42.357549250819744 ] } },
{ "type": "Feature", "properties": { "SBL_ID": " 21022 0001A", "SCHOOL_ID": null, "ADDRESS": "15 Walnut Park", "NAME": "Newton Early Childhood Program ", "Name_dB": null, "Name_Full": null, "URL": null, "Type": "Special Ed", "Image": null }, "geometry": { "type": "Point", "coordinates": [ -71.213497514512568, 42.3547542670754 ] } }
]
}
